{"data":{"Aklavik":{"projects":[{"title":"Local Roads Upgrade","cost":233000},{"title":"Aklavik Solid Waste Site ","cost":3045901.639}],"sum":3278901.639,"numApps":2,"lat":68.21913,"lng":-135.01071,"pop":648},"Behchoko":{"projects":[{"title":"Behchoko Community Office ","cost":3045901.639}],"sum":3045901.639,"numApps":1},"Colville Lake":{"projects":[{"title":"Colville Lake Community Office ","cost":3045901.639},{"title":"Relocation of Colville Lake Airport ","cost":3045901.639}],"sum":6091803.278,"numApps":2,"lat":67.04331,"lng":-126.08751,"pop":0},"Deline":{"projects":[{"title":"Deline Sewage Lagoon ","cost":3045901.639}],"sum":3045901.639,"numApps":1,"lat":65.19844,"lng":-123.40565,"pop":0},"Dettah":{"projects":[{"title":"Dettah Community Complex ","cost":3045901.639},{"title":"Reconstruction of Dettah Access Road ","cost":3045901.639}],"sum":6091803.278,"numApps":2},"Edzo":{"projects":[{"title":"North Arm Territorial Park Picnic Shelter","cost":100000}],"sum":100000,"numApps":1},"Enterprise":{"projects":[{"title":"Fire Hall Retrofit","cost":125000},{"title":"Trail Construction from Enterprise to Twin Falls","cost":50000},{"title":"Enterprise Community Centre ","cost":3045901.639}],"sum":3220901.639,"numApps":3,"lat":60.55023,"lng":-116.13604,"pop":0},"Fort Good Hope":{"projects":[{"title":"Fort Good Hope Community Complex ","cost":3045901.639},{"title":"Fort Good Hope Water Treatment Plant Upgrade ","cost":3045901.639}],"sum":6091803.278,"numApps":2,"lat":66.25698,"lng":-128.6374,"pop":0},"Fort Liard":{"projects":[{"title":"Fort Liard Waste Disposal Site ","cost":3045901.639},{"title":"Fort Liard Water Treatment Plant Retrofit ","cost":3045901.639}],"sum":6091803.278,"numApps":2,"lat":60.23339,"lng":-123.46985,"pop":530},"Fort McPherson":{"projects":[{"title":"Expansion of Fort McPherson Solid Waste Site ","cost":3045901.639},{"title":"Fort McPherson 4 Bay Parking Garage ","cost":3045901.639}],"sum":6091803.278,"numApps":2,"lat":67.43863,"lng":-134.88543,"pop":1069},"Old Fort Providence":{"projects":[{"title":"Fort Providence Arena Upgrade ","cost":3045901.639}],"sum":3045901.639,"numApps":1,"lat":62.26715,"lng":-114.16925,"pop":0},"Fort Resolution":{"projects":[{"title":"Antoine Beaulieu Community Hall","cost":250000},{"title":"Fort Resolution Youth Complex ","cost":3045901.639}],"sum":3295901.639,"numApps":2,"lat":61.16195,"lng":-113.64429,"pop":0},"Fort Simpson":{"projects":[{"title":"Water Treatment Plant Renovations","cost":262500},{"title":"Fort Simpson Sewage Lagoon ","cost":3045901.639}],"sum":3308401.639,"numApps":2,"lat":61.86269,"lng":-121.35159,"pop":0},"Fort Smith":{"projects":[{"title":"Fort Smith Paving Program ","cost":3045901.639}],"sum":3045901.639,"numApps":1,"lat":60.00029,"lng":-111.88543,"pop":2364},"Gameti":{"projects":[{"title":"Gameti Fire Hall ","cost":3045901.639},{"title":"Gameti Recreation Centre ","cost":3045901.639}],"sum":6091803.278,"numApps":2},"Hay River":{"projects":[{"title":"Hay River Fire Hall Replacement ","cost":3045901.639},{"title":"Hay River Reserve Wilderness Lodge ","cost":3045901.639}],"sum":6091803.278,"numApps":2,"lat":60.81555,"lng":-115.79993,"pop":3400},"Hay River Reserve":{"projects":[{"title":"Rehabilitation of Access Road - Hay River Reserve","cost":230000}],"sum":230000,"numApps":1},"Hwy 1":{"projects":[{"title":"Mackenzie Highway 1 (km 187-411) reconstruction ","cost":3045901.639}],"sum":3045901.639,"numApps":1},"Hwy 4":{"projects":[{"title":"Ingraham Trail Highway 4 reconstruction ","cost":3045901.639}],"sum":3045901.639,"numApps":1},"Hwy 6":{"projects":[{"title":"Highway 6 reconstruction ","cost":3045901.639}],"sum":3045901.639,"numApps":1},"Hwy 7":{"projects":[{"title":"Liard Highway 7 reconstruction ","cost":3045901.639}],"sum":3045901.639,"numApps":1},"Hwy 8":{"projects":[{"title":"Dempster Highway 8 reconstruction ","cost":3045901.639}],"sum":3045901.639,"numApps":1},"Inuvik":{"projects":[{"title":"Nitainlaii Territorial Park Reception Building","cost":76500},{"title":"Street Paving","cost":349000},{"title":"Inuvik Water Treatment Plant ","cost":3045901.639}],"sum":3471401.639,"numApps":3,"lat":68.34986,"lng":-133.72181,"pop":3022},"Jean Marie River":{"projects":[{"title":"Rehabilitation of the Access Road - Jean Marie River","cost":60000}],"sum":60000,"numApps":1},"Kakisa":{"projects":[{"title":"Kakisa Community Hall/Office Renovations","cost":125000},{"title":"Kakisa Local Roads Development","cost":125000},{"title":"Kakisa Community Hall - central heating ","cost":3045901.639},{"title":"Kakisa River Bridge replacement project ","cost":3045901.639}],"sum":6341803.278,"numApps":4,"lat":60.93927,"lng":-117.40883,"pop":0},"Mackenzie Valley":{"projects":[{"title":"Mackenzie Valley Winter Road Bridges ","cost":3045901.639}],"sum":3045901.639,"numApps":1},"Nahanni":{"projects":[{"title":"Nahanni Maintenance Garage Expansion","cost":150000}],"sum":150000,"numApps":1},"Nahanni Butte":{"projects":[{"title":"Nahanni Butte Sewage Lagoon/Solid Waste Site Relocation ","cost":3045901.639},{"title":"Nahanni Butte Water Treatment Plant ","cost":3045901.639}],"sum":6091803.278,"numApps":2},"Norman Wells":{"projects":[{"title":"Underground Utility Corridor Repair for the Town of Norman Wells","cost":400000},{"title":"Norman Wells Lagoon and Lift Station Upgrade ","cost":3045901.639},{"title":"Norman Wells Seawall ","cost":3045901.639},{"title":"Rehabilitation of Norman Wells Underground Water and Sewer System ","cost":3045901.639}],"sum":9537704.917,"numApps":4,"lat":65.28201,"lng":-126.8329,"pop":1027},"North Slave Region":{"projects":[{"title":"Trail Development","cost":65000}],"sum":65000,"numApps":1},"Northwest Territories":{"projects":[{"title":"Northwest Territories Highway Improvement Project ","cost":72000000}],"sum":72000000,"numApps":1},"Paulatuk":{"projects":[{"title":"Paulatuk Air Terminal Building Replacement","cost":450000},{"title":"Paulatuk Water Treatment Plant Upgrade ","cost":3045901.639}],"sum":3495901.639,"numApps":2,"lat":69.35097,"lng":-124.06886,"pop":0},"Sachs Harbour":{"projects":[{"title":"Sachs Harbour Air Terminal Building Replacement","cost":450000},{"title":"Sachs Harbour Community Complex ","cost":3045901.639}],"sum":3495901.639,"numApps":2,"lat":71.98409,"lng":-125.2463,"pop":90},"Trout Lake":{"projects":[{"title":"Relocation of Trout Lake Airport ","cost":3045901.639}],"sum":3045901.639,"numApps":1,"lat":60.43344,"lng":-121.25306,"pop":0},"Tsiigehtchic":{"projects":[{"title":"Tsiigehtchic Community Office ","cost":3045901.639},{"title":"Tsiigehtchic Water Treatment Plant ","cost":3045901.639}],"sum":6091803.278,"numApps":2,"lat":67.4429,"lng":-133.74369,"pop":0},"Tuktoyaktuk":{"projects":[{"title":"Tuktoyaktuk Air Terminal  Building Replacement","cost":700000},{"title":"Tuktoyaktuk Gravel Access Road - Phase l ","cost":3045901.639},{"title":"Tuktoyaktuk Gravel Road Access - Phase II ","cost":3045901.639},{"title":"Tuktoyaktuk New Solid Waste Site/Decommisioning of Existing Site ","cost":3045901.639}],"sum":9837704.917,"numApps":4,"lat":69.44472,"lng":-133.03422,"pop":978},"Tulita":{"projects":[{"title":"Tulita Above-Ground Pool ","cost":3045901.639},{"title":"Tulita Multi Sport Field ","cost":3045901.639},{"title":"Tulita Water Intake Initiative ","cost":3045901.639}],"sum":9137704.917,"numApps":3,"lat":64.90171,"lng":-125.57407,"pop":0},"Ulukhatok":{"projects":[{"title":"Ulukhaktok Community Hall ","cost":3045901.639}],"sum":3045901.639,"numApps":1},"Various":{"projects":[{"title":"Administration Support for Community Governments ","cost":3045901.639},{"title":"Band Bundled Water Treatment Plant Upgrades ","cost":3045901.639},{"title":"Climate Change Research and Development - Phase 2 ","cost":3045901.639},{"title":"Structural rehabilitation of bridges and culverts ","cost":3045901.639},{"title":"Administration costs for communities ","cost":3045901.639},{"title":"Research and Development studies ","cost":3045901.639}],"sum":18275409.834,"numApps":6},"Wekweètì":{"projects":[{"title":"Wekweeti Road to Recreation Camp ","cost":3045901.639}],"sum":3045901.639,"numApps":1},"Whati":{"projects":[{"title":"Local Roads Reconstruction","cost":3045901.639}],"sum":3045901.639,"numApps":1,"lat":63.14429,"lng":-117.27567,"pop":0},"Yellowknife":{"projects":[{"title":"Landfill Expansion","cost":684500},{"title":"Prelude Lake Territorial Park Shower Building","cost":200000},{"title":"City of Yellowknife Bypass Road ","cost":3045901.639},{"title":"Mackenzie Highway 1 (km 0 to 85) ","cost":3045901.639},{"title":"Yellowknife Airport Combined Services Building ","cost":3045901.639},{"title":"Yellowknife Fieldhouse ","cost":3045901.639},{"title":"Yellowknife Highway 3 (km 245 to 338) ","cost":3045901.639}],"sum":16114008.195,"numApps":7,"lat":62.456,"lng":-114.35255,"pop":15865}},"cost":"262885499.98","proj":82,"numCities":42}